{
"type": "FeatureCollection",
"name": "17 June",
"crs": { "type": "name", "properties": { "name": "urn:ogc:def:crs:OGC:1.3:CRS84" } },
"features": [
{ "type": "Feature", "properties": { "Name": "3rd Ger Abn Div", "description": null, "LONG": "-0.995561847", "MONTH": "6", "Field": "Value", "YEAR": "1944", "LAT": "49.09117964", "DAY": "17", "ICON": "En-Abn-Div.gif" }, "geometry": { "type": "Point", "coordinates": [ -0.995562, 49.09118 ] } },
{ "type": "Feature", "properties": { "Name": "21st Ger Arm Div", "description": null, "LONG": "-0.357739297", "MONTH": "6", "Field": "Value", "YEAR": "1944", "LAT": "49.19845531", "DAY": "17", "ICON": "En-Arm-Div.gif" }, "geometry": { "type": "Point", "coordinates": [ -0.357739, 49.198455 ] } },
{ "type": "Feature", "properties": { "Name": "346th Ger Inf Div", "description": null, "LONG": "-0.144691949", "MONTH": "6", "Field": "Value", "YEAR": "1944", "LAT": "49.17922941", "DAY": "17", "ICON": "En-Inf-Div.gif" }, "geometry": { "type": "Point", "coordinates": [ -0.144692, 49.179229 ] } },
{ "type": "Feature", "properties": { "Name": "711th Ger Inf Div", "description": null, "LONG": "-0.155137375", "MONTH": "6", "Field": "Value", "YEAR": "1944", "LAT": "49.24261233", "DAY": "17", "ICON": "En-Inf-Div.gif" }, "geometry": { "type": "Point", "coordinates": [ -0.155137, 49.242612 ] } },
{ "type": "Feature", "properties": { "Name": "6th UK Abn Div", "description": null, "LONG": "-0.233231032", "MONTH": "6", "Field": "Value", "YEAR": "1944", "LAT": "49.2379344", "DAY": "17", "ICON": "UK-Abn-Div.gif" }, "geometry": { "type": "Point", "coordinates": [ -0.233231, 49.237934 ] } },
{ "type": "Feature", "properties": { "Name": "51st UK Inf Div", "description": null, "LONG": "-0.28394626", "MONTH": "6", "Field": "Value", "YEAR": "1944", "LAT": "49.27793593", "DAY": "17", "ICON": "UK-Inf-Div.gif" }, "geometry": { "type": "Point", "coordinates": [ -0.283946, 49.277936 ] } },
{ "type": "Feature", "properties": { "Name": "3rd UK Inf Div", "description": null, "LONG": "-0.307270233", "MONTH": "6", "Field": "Value", "YEAR": "1944", "LAT": "49.28668195", "DAY": "17", "ICON": "UK-Inf-Div.gif" }, "geometry": { "type": "Point", "coordinates": [ -0.30727, 49.286682 ] } },
{ "type": "Feature", "properties": { "Name": "15th UK Inf Div", "description": null, "LONG": "-0.560693619", "MONTH": "6", "Field": "Value", "YEAR": "1944", "LAT": "49.25631835", "DAY": "17", "ICON": "UK-Inf-Div.gif" }, "geometry": { "type": "Point", "coordinates": [ -0.560694, 49.256318 ] } },
{ "type": "Feature", "properties": { "Name": "50th UK Inf Div", "description": null, "LONG": "-0.690796845", "MONTH": "6", "Field": "Value", "YEAR": "1944", "LAT": "49.27361654", "DAY": "17", "ICON": "UK-Inf-Div.gif" }, "geometry": { "type": "Point", "coordinates": [ -0.690797, 49.273617 ] } },
{ "type": "Feature", "properties": { "Name": "709th Ger Inf Div", "description": null, "LONG": "-1.391235799", "MONTH": "6", "Field": "Value", "YEAR": "1944", "LAT": "49.56341075", "DAY": "17", "ICON": "En-Inf-Div.gif" }, "geometry": { "type": "Point", "coordinates": [ -1.391236, 49.563411 ] } },
{ "type": "Feature", "properties": { "Name": "77th Ger Inf Div", "description": null, "LONG": "-1.440959572", "MONTH": "6", "Field": "Value", "YEAR": "1944", "LAT": "49.49773648", "DAY": "17", "ICON": "En-Inf-Div.gif" }, "geometry": { "type": "Point", "coordinates": [ -1.44096, 49.497736 ] } },
{ "type": "Feature", "properties": { "Name": "1st Inf Div", "description": null, "LONG": "-0.8524214", "MONTH": "6", "Field": "Value", "YEAR": "1944", "LAT": "49.11522727", "DAY": "17", "ICON": "us-Inf-Div.gif" }, "geometry": { "type": "Point", "coordinates": [ -0.852421, 49.115227 ] } },
{ "type": "Feature", "properties": { "Name": "2nd Inf Div", "description": null, "LONG": "-0.949109761", "MONTH": "6", "Field": "Value", "YEAR": "1944", "LAT": "49.16017889", "DAY": "17", "ICON": "us-Inf-Div.gif" }, "geometry": { "type": "Point", "coordinates": [ -0.94911, 49.160179 ] } },
{ "type": "Feature", "properties": { "Name": "245th Ger Inf Div", "description": null, "LONG": "-1.304011914", "MONTH": "6", "Field": "Value", "YEAR": "1944", "LAT": "49.04031693", "DAY": "17", "ICON": "En-Inf-Div.gif" }, "geometry": { "type": "Point", "coordinates": [ -1.304012, 49.040317 ] } },
{ "type": "Feature", "properties": { "Name": "91st Ger Div", "description": null, "LONG": "-1.529273912", "MONTH": "6", "Field": "Value", "YEAR": "1944", "LAT": "49.34375359", "DAY": "17", "ICON": "En-Inf-Div.gif" }, "geometry": { "type": "Point", "coordinates": [ -1.529274, 49.343754 ] } },
{ "type": "Feature", "properties": { "Name": "9th Ger Inf Div", "description": null, "LONG": "-1.607201147", "MONTH": "6", "Field": "Value", "YEAR": "1944", "LAT": "49.40043659", "DAY": "17", "ICON": "En-Inf-Div.gif" }, "geometry": { "type": "Point", "coordinates": [ -1.607201, 49.400437 ] } },
{ "type": "Feature", "properties": { "Name": "243rd Ger Inf Div", "description": null, "LONG": "-1.658229025", "MONTH": "6", "Field": "Value", "YEAR": "1944", "LAT": "49.35481357", "DAY": "17", "ICON": "En-Inf-Div.gif" }, "geometry": { "type": "Point", "coordinates": [ -1.658229, 49.354814 ] } },
{ "type": "Feature", "properties": { "Name": "352nd Ger Inf Div", "description": null, "LONG": "-1.094384055", "MONTH": "6", "Field": "Value", "YEAR": "1944", "LAT": "49.14473367", "DAY": "17", "ICON": "En-Inf-Div.gif" }, "geometry": { "type": "Point", "coordinates": [ -1.094384, 49.144734 ] } },
{ "type": "Feature", "properties": { "Name": "29th Inf Div", "description": null, "LONG": "-1.029540791", "MONTH": "6", "Field": "Value", "YEAR": "1944", "LAT": "49.20096943", "DAY": "17", "ICON": "us-Inf-Div.gif" }, "geometry": { "type": "Point", "coordinates": [ -1.029541, 49.200969 ] } },
{ "type": "Feature", "properties": { "Name": "1st Inf Div", "description": null, "LONG": "-0.796416973", "MONTH": "6", "Field": "Value", "YEAR": "1944", "LAT": "49.22974384", "DAY": "17", "ICON": "us-Inf-Div.gif" }, "geometry": { "type": "Point", "coordinates": [ -0.796417, 49.229744 ] } },
{ "type": "Feature", "properties": { "Name": "30th Inf Div", "description": null, "LONG": "-1.139149654", "MONTH": "6", "Field": "Value", "YEAR": "1944", "LAT": "49.32568348", "DAY": "17", "ICON": "us-Inf-Div.gif" }, "geometry": { "type": "Point", "coordinates": [ -1.13915, 49.325683 ] } },
{ "type": "Feature", "properties": { "Name": "101st Abn Inf", "description": null, "LONG": "-1.236578516", "MONTH": "6", "Field": "Value", "YEAR": "1944", "LAT": "49.35655496", "DAY": "17", "ICON": "us-Abn-Div.gif" }, "geometry": { "type": "Point", "coordinates": [ -1.236579, 49.356555 ] } },
{ "type": "Feature", "properties": { "Name": "79th Inf Div", "description": null, "LONG": "-1.398362024", "MONTH": "6", "Field": "Value", "YEAR": "1944", "LAT": "49.40279219", "DAY": "17", "ICON": "us-Inf-Div.gif" }, "geometry": { "type": "Point", "coordinates": [ -1.398362, 49.402792 ] } },
{ "type": "Feature", "properties": { "Name": "90th Inf Div", "description": null, "LONG": "-1.384466454", "MONTH": "6", "Field": "Value", "YEAR": "1944", "LAT": "49.44710871", "DAY": "17", "ICON": "us-Inf-Div.gif" }, "geometry": { "type": "Point", "coordinates": [ -1.384466, 49.447109 ] } },
{ "type": "Feature", "properties": { "Name": "4th Inf Div", "description": null, "LONG": "-1.320684909", "MONTH": "6", "Field": "Value", "YEAR": "1944", "LAT": "49.50539708", "DAY": "17", "ICON": "us-Inf-Div.gif" }, "geometry": { "type": "Point", "coordinates": [ -1.320685, 49.505397 ] } },
{ "type": "Feature", "properties": { "Name": "319th Ger Inf Div", "description": null, "LONG": "-1.331304409", "MONTH": "6", "Field": "Value", "YEAR": "1944", "LAT": "49.53844513", "DAY": "17", "ICON": "En-Inf-Div.gif" }, "geometry": { "type": "Point", "coordinates": [ -1.331304, 49.538445 ] } }
]
}
