{
"type": "FeatureCollection",
"name": "7 June",
"crs": { "type": "name", "properties": { "name": "urn:ogc:def:crs:OGC:1.3:CRS84" } },
"features": [
{ "type": "Feature", "properties": { "Name": "7th UK Inf Div", "description": null, "LONG": "-0.4743818", "MONTH": "6", "Field": "Value", "YEAR": "1944", "LAT": "49.32466392", "DAY": "7", "ICON": "UK-Inf-Div.gif" }, "geometry": { "type": "Point", "coordinates": [ -0.474382, 49.324664 ] } },
{ "type": "Feature", "properties": { "Name": "19th Inf Div", "description": null, "LONG": "-0.837586728", "MONTH": "6", "Field": "Value", "YEAR": "1944", "LAT": "49.36962029", "DAY": "7", "ICON": "us-Inf-Div.gif" }, "geometry": { "type": "Point", "coordinates": [ -0.837587, 49.36962 ] } },
{ "type": "Feature", "properties": { "Name": "115th Inf reg", "description": null, "LONG": "-0.886810053", "MONTH": "6", "Field": "Value", "YEAR": "1944", "LAT": "49.37946757", "DAY": "7", "ICON": "us-Inf-Div.gif" }, "geometry": { "type": "Point", "coordinates": [ -0.88681, 49.379468 ] } },
{ "type": "Feature", "properties": { "Name": "116th Inf reg", "description": null, "LONG": "-0.925741564", "MONTH": "6", "Field": "Value", "YEAR": "1944", "LAT": "49.39615034", "DAY": "7", "ICON": "us-Inf-Div.gif" }, "geometry": { "type": "Point", "coordinates": [ -0.925742, 49.39615 ] } },
{ "type": "Feature", "properties": { "Name": "56th UK Inf Div", "description": null, "LONG": "-0.668936117", "MONTH": "6", "Field": "Value", "YEAR": "1944", "LAT": "49.31175171", "DAY": "7", "ICON": "us-Inf-Div.gif" }, "geometry": { "type": "Point", "coordinates": [ -0.668936, 49.311752 ] } }
]
}
