{
"type": "FeatureCollection",
"name": "14 June",
"crs": { "type": "name", "properties": { "name": "urn:ogc:def:crs:OGC:1.3:CRS84" } },
"features": [
{ "type": "Feature", "properties": { "Name": "32nd Abn Div", "description": null, "LONG": "-1.379898112", "MONTH": "6", "Field": "Value", "YEAR": "1944", "LAT": "49.35948094", "DAY": "14", "ICON": "us-Abn-Div.gif" }, "geometry": { "type": "Point", "coordinates": [ -1.379898, 49.359481 ] } },
{ "type": "Feature", "properties": { "Name": "6th UK Abn Div", "description": null, "LONG": "-0.202985065", "MONTH": "6", "Field": "Value", "YEAR": "1944", "LAT": "49.20121511", "DAY": "14", "ICON": "us-Abn-Div.gif" }, "geometry": { "type": "Point", "coordinates": [ -0.202985, 49.201215 ] } },
{ "type": "Feature", "properties": { "Name": "41st Ger Inf Div", "description": null, "LONG": "-0.12983659", "MONTH": "6", "Field": "Value", "YEAR": "1944", "LAT": "49.24754777", "DAY": "14", "ICON": "En-Inf-Div.gif" }, "geometry": { "type": "Point", "coordinates": [ -0.129837, 49.247548 ] } },
{ "type": "Feature", "properties": { "Name": "51st UK Inf Div", "description": null, "LONG": "-0.280984327", "MONTH": "6", "Field": "Value", "YEAR": "1944", "LAT": "49.26411249", "DAY": "14", "ICON": "UK-Inf-Div.gif" }, "geometry": { "type": "Point", "coordinates": [ -0.280984, 49.264112 ] } },
{ "type": "Feature", "properties": { "Name": "3rd UK Inf Div", "description": null, "LONG": "-0.288221344", "MONTH": "6", "Field": "Value", "YEAR": "1944", "LAT": "49.26945336", "DAY": "14", "ICON": "UK-Inf-Div.gif" }, "geometry": { "type": "Point", "coordinates": [ -0.288221, 49.269453 ] } },
{ "type": "Feature", "properties": { "Name": "30th Inf Div", "description": null, "LONG": "-0.950639924", "MONTH": "6", "Field": "Value", "YEAR": "1944", "LAT": "49.3830883", "DAY": "14", "ICON": "us-Inf-Div.gif" }, "geometry": { "type": "Point", "coordinates": [ -0.95064, 49.383088 ] } },
{ "type": "Feature", "properties": { "Name": "4th Inf Div", "description": null, "LONG": "-0.826508293", "MONTH": "6", "Field": "Value", "YEAR": "1944", "LAT": "49.21106376", "DAY": "14", "ICON": "us-Inf-Div.gif" }, "geometry": { "type": "Point", "coordinates": [ -0.826508, 49.211064 ] } },
{ "type": "Feature", "properties": { "Name": "2nd Ger Inf Div", "description": null, "LONG": "-0.748985574", "MONTH": "6", "Field": "Value", "YEAR": "1944", "LAT": "49.08104752", "DAY": "14", "ICON": "En-Inf-Div.gif" }, "geometry": { "type": "Point", "coordinates": [ -0.748986, 49.081048 ] } },
{ "type": "Feature", "properties": { "Name": "1st Inf Div", "description": null, "LONG": "-0.843373716", "MONTH": "6", "Field": "Value", "YEAR": "1944", "LAT": "49.11798834", "DAY": "14", "ICON": "us-Inf-Div.gif" }, "geometry": { "type": "Point", "coordinates": [ -0.843374, 49.117988 ] } },
{ "type": "Feature", "properties": { "Name": "2nd Arm Div", "description": null, "LONG": "-0.896397041", "MONTH": "6", "Field": "Value", "YEAR": "1944", "LAT": "49.14949196", "DAY": "14", "ICON": "us-Arm-Div.gif" }, "geometry": { "type": "Point", "coordinates": [ -0.896397, 49.149492 ] } },
{ "type": "Feature", "properties": { "Name": "352nd Ger Inf Div", "description": null, "LONG": "-1.04907714", "MONTH": "6", "Field": "Value", "YEAR": "1944", "LAT": "49.15933006", "DAY": "14", "ICON": "En-Inf-Div.gif" }, "geometry": { "type": "Point", "coordinates": [ -1.049077, 49.15933 ] } },
{ "type": "Feature", "properties": { "Name": "25th Inf Div", "description": null, "LONG": "-1.014635198", "MONTH": "6", "Field": "Value", "YEAR": "1944", "LAT": "49.20957542", "DAY": "14", "ICON": "us-Inf-Div.gif" }, "geometry": { "type": "Point", "coordinates": [ -1.014635, 49.209575 ] } },
{ "type": "Feature", "properties": { "Name": "2nd Inf Div", "description": null, "LONG": "-0.935375914", "MONTH": "6", "Field": "Value", "YEAR": "1944", "LAT": "49.19722118", "DAY": "14", "ICON": "us-Inf-Div.gif" }, "geometry": { "type": "Point", "coordinates": [ -0.935376, 49.197221 ] } },
{ "type": "Feature", "properties": { "Name": "17th Ger Inf Div", "description": null, "LONG": "-1.182077788", "MONTH": "6", "Field": "Value", "YEAR": "1944", "LAT": "49.22362135", "DAY": "14", "ICON": "En-Inf-Div.gif" }, "geometry": { "type": "Point", "coordinates": [ -1.182078, 49.223621 ] } },
{ "type": "Feature", "properties": { "Name": "91st Ger Inf Div", "description": null, "LONG": "-1.47950335", "MONTH": "6", "Field": "Value", "YEAR": "1944", "LAT": "49.34585009", "DAY": "14", "ICON": "En-Inf-Div.gif" }, "geometry": { "type": "Point", "coordinates": [ -1.479503, 49.34585 ] } },
{ "type": "Feature", "properties": { "Name": "8th Inf Div", "description": null, "LONG": "-1.294754687", "MONTH": "6", "Field": "Value", "YEAR": "1944", "LAT": "49.34109993", "DAY": "14", "ICON": "us-Inf-Div.gif" }, "geometry": { "type": "Point", "coordinates": [ -1.294755, 49.3411 ] } },
{ "type": "Feature", "properties": { "Name": "90th Inf Div", "description": null, "LONG": "-1.34060453", "MONTH": "6", "Field": "Value", "YEAR": "1944", "LAT": "49.39975798", "DAY": "14", "ICON": "us-Inf-Div.gif" }, "geometry": { "type": "Point", "coordinates": [ -1.340605, 49.399758 ] } },
{ "type": "Feature", "properties": { "Name": "20th Abn Div", "description": null, "LONG": "-1.257583643", "MONTH": "6", "Field": "Value", "YEAR": "1944", "LAT": "49.36671672", "DAY": "14", "ICON": "us-Abn-Div.gif" }, "geometry": { "type": "Point", "coordinates": [ -1.257584, 49.366717 ] } },
{ "type": "Feature", "properties": { "Name": "9th Inf Div", "description": null, "LONG": "-1.283562159", "MONTH": "6", "Field": "Value", "YEAR": "1944", "LAT": "49.3997997", "DAY": "14", "ICON": "us-Inf-Div.gif" }, "geometry": { "type": "Point", "coordinates": [ -1.283562, 49.3998 ] } },
{ "type": "Feature", "properties": { "Name": "43rd Ger Inf Div", "description": null, "LONG": "-1.482504002", "MONTH": "6", "Field": "Value", "YEAR": "1944", "LAT": "49.48925962", "DAY": "14", "ICON": "En-Inf-Div.gif" }, "geometry": { "type": "Point", "coordinates": [ -1.482504, 49.48926 ] } },
{ "type": "Feature", "properties": { "Name": "77th Ger Inf Div", "description": null, "LONG": "-1.471202928", "MONTH": "6", "Field": "Value", "YEAR": "1944", "LAT": "49.45514531", "DAY": "14", "ICON": "En-Inf-Div.gif" }, "geometry": { "type": "Point", "coordinates": [ -1.471203, 49.455145 ] } },
{ "type": "Feature", "properties": { "Name": "4th Inf Div", "description": null, "LONG": "-1.305783077", "MONTH": "6", "Field": "Value", "YEAR": "1944", "LAT": "49.45746579", "DAY": "14", "ICON": "us-Inf-Div.gif" }, "geometry": { "type": "Point", "coordinates": [ -1.305783, 49.457466 ] } },
{ "type": "Feature", "properties": { "Name": "709th Ger Inf Div", "description": null, "LONG": "-1.378768201", "MONTH": "6", "Field": "Value", "YEAR": "1944", "LAT": "49.53146008", "DAY": "14", "ICON": "En-Inf-Div.gif" }, "geometry": { "type": "Point", "coordinates": [ -1.378768, 49.53146 ] } }
]
}
