{
"type": "FeatureCollection",
"name": "18 June",
"crs": { "type": "name", "properties": { "name": "urn:ogc:def:crs:OGC:1.3:CRS84" } },
"features": [
{ "type": "Feature", "properties": { "Name": "51st UK Inf Div", "description": null, "LONG": "-0.231008814", "MONTH": "6", "Field": "Value", "YEAR": "1944", "LAT": "49.22071192", "DAY": "18", "ICON": "UK-Inf-Div.gif" }, "geometry": { "type": "Point", "coordinates": [ -0.231009, 49.220712 ] } },
{ "type": "Feature", "properties": { "Name": "6th UK Abn Div", "description": null, "LONG": "-0.251326165", "MONTH": "6", "Field": "Value", "YEAR": "1944", "LAT": "49.24758906", "DAY": "18", "ICON": "UK-Abn-Div.gif" }, "geometry": { "type": "Point", "coordinates": [ -0.251326, 49.247589 ] } },
{ "type": "Feature", "properties": { "Name": "3rd UK Inf Div", "description": null, "LONG": "-0.281412856", "MONTH": "6", "Field": "Value", "YEAR": "1944", "LAT": "49.26318078", "DAY": "18", "ICON": "UK-Inf-Div.gif" }, "geometry": { "type": "Point", "coordinates": [ -0.281413, 49.263181 ] } },
{ "type": "Feature", "properties": { "Name": "711th Ger Inf Div", "description": null, "LONG": "-0.165257599", "MONTH": "6", "Field": "Value", "YEAR": "1944", "LAT": "49.25203145", "DAY": "18", "ICON": "En-Inf-Div.gif" }, "geometry": { "type": "Point", "coordinates": [ -0.165258, 49.252031 ] } },
{ "type": "Feature", "properties": { "Name": "346th Ger Inf Div", "description": null, "LONG": "-0.164009035", "MONTH": "6", "Field": "Value", "YEAR": "1944", "LAT": "49.17096291", "DAY": "18", "ICON": "En-Inf-Div.gif" }, "geometry": { "type": "Point", "coordinates": [ -0.164009, 49.170963 ] } },
{ "type": "Feature", "properties": { "Name": "15th UK Inf Div", "description": null, "LONG": "-0.613644739", "MONTH": "6", "Field": "Value", "YEAR": "1944", "LAT": "49.28805892", "DAY": "18", "ICON": "UK-Inf-Div.gif" }, "geometry": { "type": "Point", "coordinates": [ -0.613645, 49.288059 ] } },
{ "type": "Feature", "properties": { "Name": "49th UK Inf Div", "description": null, "LONG": "-0.633015589", "MONTH": "6", "Field": "Value", "YEAR": "1944", "LAT": "49.25370105", "DAY": "18", "ICON": "UK-Inf-Div.gif" }, "geometry": { "type": "Point", "coordinates": [ -0.633016, 49.253701 ] } },
{ "type": "Feature", "properties": { "Name": "12th Ger Arm Div", "description": null, "LONG": "-0.581501922", "MONTH": "6", "Field": "Value", "YEAR": "1944", "LAT": "49.1791667", "DAY": "18", "ICON": "En-Arm-Div.gif" }, "geometry": { "type": "Point", "coordinates": [ -0.581502, 49.179167 ] } },
{ "type": "Feature", "properties": { "Name": "2nd Ger Arm Div", "description": null, "LONG": "-0.761816472", "MONTH": "6", "Field": "Value", "YEAR": "1944", "LAT": "49.04904422", "DAY": "18", "ICON": "En-Arm-Div.gif" }, "geometry": { "type": "Point", "coordinates": [ -0.761816, 49.049044 ] } },
{ "type": "Feature", "properties": { "Name": "50th UK Inf Div", "description": null, "LONG": "-0.691182118", "MONTH": "6", "Field": "Value", "YEAR": "1944", "LAT": "49.19971514", "DAY": "18", "ICON": "UK-Inf-Div.gif" }, "geometry": { "type": "Point", "coordinates": [ -0.691182, 49.199715 ] } },
{ "type": "Feature", "properties": { "Name": "3rd Ger Abn Div", "description": null, "LONG": "-0.891643267", "MONTH": "6", "Field": "Value", "YEAR": "1944", "LAT": "49.07337582", "DAY": "18", "ICON": "En-Abn-Div.gif" }, "geometry": { "type": "Point", "coordinates": [ -0.891643, 49.073376 ] } },
{ "type": "Feature", "properties": { "Name": "1st Inf Div", "description": null, "LONG": "-0.8410911", "MONTH": "6", "Field": "Value", "YEAR": "1944", "LAT": "49.11352711", "DAY": "18", "ICON": "us-Inf-Div.gif" }, "geometry": { "type": "Point", "coordinates": [ -0.841091, 49.113527 ] } },
{ "type": "Feature", "properties": { "Name": "2nd Inf Div", "description": null, "LONG": "-0.955629545", "MONTH": "6", "Field": "Value", "YEAR": "1944", "LAT": "49.16165339", "DAY": "18", "ICON": "us-Inf-Div.gif" }, "geometry": { "type": "Point", "coordinates": [ -0.95563, 49.161653 ] } },
{ "type": "Feature", "properties": { "Name": "2nd Arm Div", "description": null, "LONG": "-0.885084261", "MONTH": "6", "Field": "Value", "YEAR": "1944", "LAT": "49.17288343", "DAY": "18", "ICON": "us-Arm-Div.gif" }, "geometry": { "type": "Point", "coordinates": [ -0.885084, 49.172883 ] } },
{ "type": "Feature", "properties": { "Name": "29th Inf Div", "description": null, "LONG": "-1.041283767", "MONTH": "6", "Field": "Value", "YEAR": "1944", "LAT": "49.1807427", "DAY": "18", "ICON": "us-Inf-Div.gif" }, "geometry": { "type": "Point", "coordinates": [ -1.041284, 49.180743 ] } },
{ "type": "Feature", "properties": { "Name": "30th Inf Div", "description": null, "LONG": "-1.122733265", "MONTH": "6", "Field": "Value", "YEAR": "1944", "LAT": "49.26621275", "DAY": "18", "ICON": "us-Inf-Div.gif" }, "geometry": { "type": "Point", "coordinates": [ -1.122733, 49.266213 ] } },
{ "type": "Feature", "properties": { "Name": "101st Abn Div", "description": null, "LONG": "-1.304523774", "MONTH": "6", "Field": "Value", "YEAR": "1944", "LAT": "49.29941125", "DAY": "18", "ICON": "us-Abn-Div.gif" }, "geometry": { "type": "Point", "coordinates": [ -1.304524, 49.299411 ] } },
{ "type": "Feature", "properties": { "Name": "11th UK Arm Div", "description": null, "LONG": "-0.504490196", "MONTH": "6", "Field": "Value", "YEAR": "1944", "LAT": "49.24772667", "DAY": "18", "ICON": "UK-Arm-Div.gif" }, "geometry": { "type": "Point", "coordinates": [ -0.50449, 49.247727 ] } },
{ "type": "Feature", "properties": { "Name": "245th Ger Inf Div", "description": null, "LONG": "-1.310021787", "MONTH": "6", "Field": "Value", "YEAR": "1944", "LAT": "49.0470762", "DAY": "18", "ICON": "En-Inf-Div.gif" }, "geometry": { "type": "Point", "coordinates": [ -1.310022, 49.047076 ] } },
{ "type": "Feature", "properties": { "Name": "91st Ger Inf Div", "description": null, "LONG": "-1.501842398", "MONTH": "6", "Field": "Value", "YEAR": "1944", "LAT": "49.34072051", "DAY": "18", "ICON": "En-Inf-Div.gif" }, "geometry": { "type": "Point", "coordinates": [ -1.501842, 49.340721 ] } },
{ "type": "Feature", "properties": { "Name": "90th Inf Div", "description": null, "LONG": "-1.483436469", "MONTH": "6", "Field": "Value", "YEAR": "1944", "LAT": "49.4291829", "DAY": "18", "ICON": "us-Inf-Div.gif" }, "geometry": { "type": "Point", "coordinates": [ -1.483436, 49.429183 ] } },
{ "type": "Feature", "properties": { "Name": "77th Ger Inf Div", "description": null, "LONG": "-1.522271408", "MONTH": "6", "Field": "Value", "YEAR": "1944", "LAT": "49.48515257", "DAY": "18", "ICON": "En-Inf-Div.gif" }, "geometry": { "type": "Point", "coordinates": [ -1.522271, 49.485153 ] } },
{ "type": "Feature", "properties": { "Name": "82nd Abn Div", "description": null, "LONG": "-1.488210411", "MONTH": "6", "Field": "Value", "YEAR": "1944", "LAT": "49.39324366", "DAY": "18", "ICON": "us-Abn-Div.gif" }, "geometry": { "type": "Point", "coordinates": [ -1.48821, 49.393244 ] } },
{ "type": "Feature", "properties": { "Name": "9th Inf Div", "description": null, "LONG": "-1.708742161", "MONTH": "6", "Field": "Value", "YEAR": "1944", "LAT": "49.3791294", "DAY": "18", "ICON": "us-Inf-Div.gif" }, "geometry": { "type": "Point", "coordinates": [ -1.708742, 49.379129 ] } },
{ "type": "Feature", "properties": { "Name": "243rd Ger Inf Div", "description": null, "LONG": "-1.75846799", "MONTH": "6", "Field": "Value", "YEAR": "1944", "LAT": "49.44520508", "DAY": "18", "ICON": "En-Inf-Div.gif" }, "geometry": { "type": "Point", "coordinates": [ -1.758468, 49.445205 ] } }
]
}
